$GPRMC,014203.0,A,4304.32552,N,08924.72157,W,000.03,000.0,260516,001.8,W,A*3C
$GPRMC,014203.4,A,4304.32554,N,08924.72168,W,000.02,000.0,260516,001.8,W,A*33
$GPRMC,014203.8,A,4304.32557,N,08924.72176,W,000.02,000.0,260516,001.8,W,A*33
$GPRMC,014204.2,A,4304.32561,N,08924.72176,W,000.02,000.0,260516,001.8,W,A*3B
$GPRMC,014204.6,A,4304.32566,N,08924.72180,W,000.03,000.0,260516,001.8,W,A*30
$GPRMC,014205.0,A,4304.32567,N,08924.72185,W,000.03,000.0,260516,001.8,W,A*33
$GPRMC,014205.4,A,4304.32571,N,08924.72185,W,000.03,000.0,260516,001.8,W,A*30
$GPRMC,014205.8,A,4304.32577,N,08924.72184,W,000.03,000.0,260516,001.8,W,A*3B
$GPRMC,014206.2,A,4304.32577,N,08924.72183,W,000.02,000.0,260516,001.8,W,A*34
$GPRMC,014206.6,A,4304.32572,N,08924.72184,W,000.02,000.0,260516,001.8,W,A*32
$GPRMC,014207.0,A,4304.32572,N,08924.72186,W,000.02,000.0,260516,001.8,W,A*37
$GPRMC,014207.4,A,4304.32572,N,08924.72186,W,000.02,000.0,260516,001.8,W,A*33
$GPRMC,014207.8,A,4304.32571,N,08924.72186,W,000.01,000.0,260516,001.8,W,A*3F
$GPRMC,014208.2,A,4304.32571,N,08924.72185,W,000.03,000.0,260516,001.8,W,A*3B
$GPRMC,014208.6,A,4304.32571,N,08924.72185,W,000.04,000.0,260516,001.8,W,A*38
$GPRMC,014209.0,A,4304.32571,N,08924.72185,W,000.01,000.0,260516,001.8,W,A*3A
$GPRMC,014209.4,A,4304.32571,N,08924.72184,W,000.03,000.0,260516,001.8,W,A*3D
$GPRMC,014209.8,A,4304.32571,N,08924.72184,W,000.02,000.0,260516,001.8,W,A*30
$GPRMC,014210.2,A,4304.32571,N,08924.72184,W,000.02,000.0,260516,001.8,W,A*32
$GPRMC,014210.6,A,4304.32571,N,08924.72183,W,000.03,000.0,260516,001.8,W,A*30
$GPRMC,014211.0,A,4304.32571,N,08924.72183,W,000.04,000.0,260516,001.8,W,A*30
$GPRMC,014211.4,A,4304.32572,N,08924.72183,W,000.04,000.0,260516,001.8,W,A*37
$GPRMC,014211.8,A,4304.32572,N,08924.72182,W,000.03,000.0,260516,001.8,W,A*3D
$GPRMC,014212.2,A,4304.32572,N,08924.72182,W,000.04,000.0,260516,001.8,W,A*33
$GPRMC,014212.6,A,4304.32572,N,08924.72182,W,000.00,000.0,260516,001.8,W,A*33
$GPRMC,014213.0,A,4304.32572,N,08924.72182,W,000.02,000.0,260516,001.8,W,A*36
$GPRMC,014213.4,A,4304.32572,N,08924.72182,W,000.02,000.0,260516,001.8,W,A*32
$GPRMC,014213.8,A,4304.32572,N,08924.72182,W,000.03,000.0,260516,001.8,W,A*3F
$GPRMC,014214.2,A,4304.32572,N,08924.72182,W,000.01,000.0,260516,001.8,W,A*30
$GPRMC,014214.6,A,4304.32572,N,08924.72182,W,000.01,000.0,260516,001.8,W,A*34
$GPRMC,014215.0,A,4304.32572,N,08924.72182,W,000.01,000.0,260516,001.8,W,A*33
$GPRMC,014215.4,A,4304.32572,N,08924.72181,W,000.01,000.0,260516,001.8,W,A*34
$GPRMC,014215.8,A,4304.32572,N,08924.72181,W,000.02,000.0,260516,001.8,W,A*3B
$GPRMC,014216.2,A,4304.32572,N,08924.72181,W,000.01,000.0,260516,001.8,W,A*31
$GPRMC,014216.6,A,4304.32572,N,08924.72181,W,000.01,000.0,260516,001.8,W,A*35
$GPRMC,014217.0,A,4304.32572,N,08924.72181,W,000.01,000.0,260516,001.8,W,A*32
$GPRMC,014217.4,A,4304.32572,N,08924.72181,W,000.01,000.0,260516,001.8,W,A*36
$GPRMC,014217.8,A,4304.32572,N,08924.72181,W,000.00,000.0,260516,001.8,W,A*3B
$GPRMC,014218.2,A,4304.32572,N,08924.72181,W,000.00,000.0,260516,001.8,W,A*3E
$GPRMC,014218.6,A,4304.32572,N,08924.72181,W,000.00,000.0,260516,001.8,W,A*3A
$GPRMC,014219.0,A,4304.32572,N,08924.72181,W,000.00,000.0,260516,001.8,W,A*3D
$GPRMC,014219.4,A,4304.32572,N,08924.72181,W,000.01,000.0,260516,001.8,W,A*38
$GPRMC,014219.8,A,4304.32572,N,08924.72181,W,000.00,000.0,260516,001.8,W,A*35
$GPRMC,014220.2,A,4304.32572,N,08924.72181,W,000.00,000.0,260516,001.8,W,A*35
$GPRMC,014220.6,A,4304.32572,N,08924.72181,W,000.00,000.0,260516,001.8,W,A*31
$GPRMC,014221.0,A,4304.32572,N,08924.72181,W,000.00,000.0,260516,001.8,W,A*36
$GPRMC,014221.4,A,4304.32571,N,08924.72181,W,000.00,000.0,260516,001.8,W,A*31
$GPRMC,014221.8,A,4304.32571,N,08924.72181,W,000.00,000.0,260516,001.8,W,A*3D
$GPRMC,014222.2,A,4304.32571,N,08924.72181,W,000.00,000.0,260516,001.8,W,A*34
$GPRMC,014222.6,A,4304.32571,N,08924.72181,W,000.00,000.0,260516,001.8,W,A*30
$GPRMC,014223.0,A,4304.32571,N,08924.72181,W,000.00,000.0,260516,001.8,W,A*37
$GPRMC,014223.4,A,4304.32571,N,08924.72181,W,000.00,000.0,260516,001.8,W,A*33
$GPRMC,014223.8,A,4304.32571,N,08924.72180,W,000.01,000.0,260516,001.8,W,A*3F
$GPRMC,014224.2,A,4304.32571,N,08924.72180,W,000.00,000.0,260516,001.8,W,A*33
$GPRMC,014224.6,A,4304.32571,N,08924.72180,W,000.00,000.0,260516,001.8,W,A*37
$GPRMC,014225.0,A,4304.32571,N,08924.72180,W,000.00,000.0,260516,001.8,W,A*30
$GPRMC,014225.4,A,4304.32571,N,08924.72180,W,000.01,000.0,260516,001.8,W,A*35
$GPRMC,014225.8,A,4304.32571,N,08924.72180,W,000.00,000.0,260516,001.8,W,A*38
$GPRMC,014226.2,A,4304.32570,N,08924.72180,W,000.01,000.0,260516,001.8,W,A*31
$GPRMC,014226.6,A,4304.32570,N,08924.72180,W,000.00,000.0,260516,001.8,W,A*34
$GPRMC,014227.0,A,4304.32570,N,08924.72180,W,000.00,000.0,260516,001.8,W,A*33
$GPRMC,014227.4,A,4304.32570,N,08924.72180,W,000.00,000.0,260516,001.8,W,A*37
$GPRMC,014227.8,A,4304.32570,N,08924.72180,W,000.00,000.0,260516,001.8,W,A*3B
$GPRMC,014228.2,A,4304.32570,N,08924.72180,W,000.00,000.0,260516,001.8,W,A*3E
$GPRMC,014228.6,A,4304.32570,N,08924.72180,W,000.00,000.0,260516,001.8,W,A*3A
$GPRMC,014229.0,A,4304.32570,N,08924.72180,W,000.00,000.0,260516,001.8,W,A*3D
$GPRMC,014229.4,A,4304.32570,N,08924.72180,W,000.00,000.0,260516,001.8,W,A*39
$GPRMC,014229.8,A,4304.32570,N,08924.72180,W,000.01,000.0,260516,001.8,W,A*34
$GPRMC,014230.2,A,4304.32570,N,08924.72180,W,000.01,000.0,260516,001.8,W,A*36
$GPRMC,014230.6,A,4304.32570,N,08924.72180,W,000.00,000.0,260516,001.8,W,A*33
$GPRMC,014231.0,A,4304.32569,N,08924.72180,W,000.01,000.0,260516,001.8,W,A*3D
$GPRMC,014231.4,A,4304.32569,N,08924.72180,W,000.01,000.0,260516,001.8,W,A*39
$GPRMC,014231.8,A,4304.32570,N,08924.72180,W,000.00,000.0,260516,001.8,W,A*3C
$GPRMC,014232.2,A,4304.32570,N,08924.72180,W,000.00,000.0,260516,001.8,W,A*35
$GPRMC,014232.6,A,4304.32570,N,08924.72180,W,000.00,000.0,260516,001.8,W,A*31
$GPRMC,014233.0,A,4304.32569,N,08924.72180,W,000.00,000.0,260516,001.8,W,A*3E
$GPRMC,014233.4,A,4304.32569,N,08924.72180,W,000.00,000.0,260516,001.8,W,A*3A
$GPRMC,014233.8,A,4304.32569,N,08924.72180,W,000.00,000.0,260516,001.8,W,A*36
$GPRMC,014234.2,A,4304.32569,N,08924.72180,W,000.00,000.0,260516,001.8,W,A*3B
$GPRMC,014234.6,A,4304.32569,N,08924.72180,W,000.00,000.0,260516,001.8,W,A*3F
$GPRMC,014235.0,A,4304.32569,N,08924.72180,W,000.01,000.0,260516,001.8,W,A*39
$GPRMC,014235.4,A,4304.32569,N,08924.72180,W,000.00,000.0,260516,001.8,W,A*3C
$GPRMC,014235.8,A,4304.32569,N,08924.72180,W,000.00,000.0,260516,001.8,W,A*30
$GPRMC,014236.2,A,4304.32570,N,08924.72180,W,000.01,000.0,260516,001.8,W,A*30
$GPRMC,014236.6,A,4304.32569,N,08924.72180,W,000.01,000.0,260516,001.8,W,A*3C
$GPRMC,014237.0,A,4304.32569,N,08924.72180,W,000.01,000.0,260516,001.8,W,A*3B
$GPRMC,014237.4,A,4304.32570,N,08924.72180,W,000.00,000.0,260516,001.8,W,A*36
$GPRMC,014237.8,A,4304.32570,N,08924.72180,W,000.00,000.0,260516,001.8,W,A*3A
$GPRMC,014238.2,A,4304.32570,N,08924.72180,W,000.01,000.0,260516,001.8,W,A*3E
$GPRMC,014238.6,A,4304.32570,N,08924.72180,W,000.00,000.0,260516,001.8,W,A*3B
$GPRMC,014239.0,A,4304.32570,N,08924.72180,W,000.00,000.0,260516,001.8,W,A*3C
$GPRMC,014239.4,A,4304.32570,N,08924.72181,W,000.00,000.0,260516,001.8,W,A*39
$GPRMC,014239.8,A,4304.32570,N,08924.72181,W,000.01,000.0,260516,001.8,W,A*34
$GPRMC,014240.2,A,4304.32570,N,08924.72181,W,000.00,000.0,260516,001.8,W,A*31
$GPRMC,014240.6,A,4304.32570,N,08924.72181,W,000.00,000.0,260516,001.8,W,A*35
$GPRMC,014241.0,A,4304.32570,N,08924.72181,W,000.01,000.0,260516,001.8,W,A*33
$GPRMC,014241.4,A,4304.32570,N,08924.72181,W,000.00,000.0,260516,001.8,W,A*36
$GPRMC,014241.8,A,4304.32570,N,08924.72181,W,000.01,000.0,260516,001.8,W,A*3B
$GPRMC,014242.2,A,4304.32570,N,08924.72181,W,000.00,000.0,260516,001.8,W,A*33
$GPRMC,014242.6,A,4304.32570,N,08924.72181,W,000.00,000.0,260516,001.8,W,A*37
$GPRMC,014243.0,A,4304.32570,N,08924.72181,W,000.00,000.0,260516,001.8,W,A*30
$GPRMC,014243.4,A,4304.32570,N,08924.72181,W,000.00,000.0,260516,001.8,W,A*34
$GPRMC,014243.8,A,4304.32570,N,08924.72182,W,000.00,000.0,260516,001.8,W,A*3B
$GPRMC,014244.2,A,4304.32570,N,08924.72182,W,000.00,000.0,260516,001.8,W,A*36
$GPRMC,014244.6,A,4304.32570,N,08924.72182,W,000.00,000.0,260516,001.8,W,A*32
$GPRMC,014245.0,A,4304.32570,N,08924.72182,W,000.00,000.0,260516,001.8,W,A*35
$GPRMC,014245.4,A,4304.32570,N,08924.72182,W,000.00,000.0,260516,001.8,W,A*31
$GPRMC,014245.8,A,4304.32570,N,08924.72182,W,000.01,000.0,260516,001.8,W,A*3C
$GPRMC,014246.2,A,4304.32570,N,08924.72182,W,000.00,000.0,260516,001.8,W,A*34
$GPRMC,014246.6,A,4304.32570,N,08924.72183,W,000.00,000.0,260516,001.8,W,A*31
$GPRMC,014247.0,A,4304.32570,N,08924.72183,W,000.00,000.0,260516,001.8,W,A*36
$GPRMC,014247.4,A,4304.32570,N,08924.72183,W,000.01,000.0,260516,001.8,W,A*33
$GPRMC,014247.8,A,4304.32570,N,08924.72183,W,000.00,000.0,260516,001.8,W,A*3E
$GPRMC,014248.2,A,4304.32570,N,08924.72183,W,000.00,000.0,260516,001.8,W,A*3B
$GPGSA,A,3,02,06,09,12,17,19,25,,,,,,2.6,1.7,1.9*3F
$GPRMC,014248.6,A,4304.32570,N,08924.72183,W,000.00,000.0,260516,001.8,W,A*3F
$GPRMC,014249.0,A,4304.32570,N,08924.72183,W,000.01,000.0,260516,001.8,W,A*39
$GPRMC,014249.4,A,4304.32570,N,08924.72183,W,000.00,000.0,260516,001.8,W,A*3C
$GPRMC,014249.8,A,4304.32570,N,08924.72183,W,000.00,000.0,260516,001.8,W,A*30
$GPRMC,014250.2,A,4304.32570,N,08924.72183,W,000.00,000.0,260516,001.8,W,A*32
$GPRMC,014250.6,A,4304.32570,N,08924.72183,W,000.00,000.0,260516,001.8,W,A*36
$GPRMC,014251.0,A,4304.32570,N,08924.72183,W,000.00,000.0,260516,001.8,W,A*31
$GPRMC,014251.4,A,4304.32570,N,08924.72183,W,000.01,000.0,260516,001.8,W,A*34
$GPRMC,014251.8,A,4304.32570,N,08924.72184,W,000.00,000.0,260516,001.8,W,A*3E
$GPRMC,014252.2,A,4304.32570,N,08924.72184,W,000.01,000.0,260516,001.8,W,A*36
$GPRMC,014252.6,A,4304.32570,N,08924.72184,W,000.00,000.0,260516,001.8,W,A*33
$GPRMC,014253.0,A,4304.32570,N,08924.72184,W,000.00,000.0,260516,001.8,W,A*34
$GPRMC,014253.4,A,4304.32570,N,08924.72184,W,000.00,000.0,260516,001.8,W,A*30
$GPRMC,014253.8,A,4304.32570,N,08924.72184,W,000.00,000.0,260516,001.8,W,A*3C
$GPRMC,014254.2,A,4304.32571,N,08924.72184,W,000.00,000.0,260516,001.8,W,A*30
$GPRMC,014254.6,A,4304.32571,N,08924.72184,W,000.00,000.0,260516,001.8,W,A*34
$GPRMC,014255.0,A,4304.32571,N,08924.72184,W,000.00,000.0,260516,001.8,W,A*33
$GPGSA,A,3,02,06,09,12,17,19,25,,,,,,2.6,1.7,1.9*3F
$GPRMC,014255.4,A,4304.32571,N,08924.72184,W,000.00,000.0,260516,001.8,W,A*37
$GPRMC,014255.8,A,4304.32571,N,08924.72185,W,000.00,000.0,260516,001.8,W,A*3A
$GPRMC,014256.2,A,4304.32571,N,08924.72185,W,000.01,000.0,260516,001.8,W,A*32
$GPRMC,014256.6,A,4304.32571,N,08924.72185,W,000.00,000.0,260516,001.8,W,A*37
$GPRMC,014257.0,A,4304.32571,N,08924.72185,W,000.01,000.0,260516,001.8,W,A*31
$GPRMC,014257.4,A,4304.32571,N,08924.72185,W,000.00,000.0,260516,001.8,W,A*34
$GPRMC,014257.8,A,4304.32571,N,08924.72185,W,000.00,000.0,260516,001.8,W,A*38
$GPRMC,014258.2,A,4304.32571,N,08924.72185,W,000.00,000.0,260516,001.8,W,A*3D
$GPRMC,014258.6,A,4304.32571,N,08924.72185,W,000.00,000.0,260516,001.8,W,A*39
$GPRMC,014259.0,A,4304.32571,N,08924.72185,W,000.01,000.0,260516,001.8,W,A*3F
$GPRMC,014259.4,A,4304.32571,N,08924.72185,W,000.00,000.0,260516,001.8,W,A*3A
$GPRMC,014259.8,A,4304.32571,N,08924.72185,W,000.00,000.0,260516,001.8,W,A*36
$GPRMC,014300.2,A,4304.32570,N,08924.72185,W,000.00,000.0,260516,001.8,W,A*30
$GPRMC,014300.6,A,4304.32570,N,08924.72185,W,000.00,000.0,260516,001.8,W,A*34
$GPRMC,014301.0,A,4304.32570,N,08924.72185,W,000.00,000.0,260516,001.8,W,A*33
$GPRMC,014301.4,A,4304.32570,N,08924.72185,W,000.01,000.0,260516,001.8,W,A*36
$GPRMC,014301.8,A,4304.32570,N,08924.72185,W,000.01,000.0,260516,001.8,W,A*3A
$GPGSV,2,2,08,17,16,112,39,19,40,104,45,25,34,308,37,01,23,047,00*7C
$GPRMC,014302.2,A,4304.32570,N,08924.72185,W,000.00,000.0,260516,001.8,W,A*32
$GPRMC,014302.6,A,4304.32570,N,08924.72185,W,000.00,000.0,260516,001.8,W,A*36
$GPRMC,014303.0,A,4304.32570,N,08924.72185,W,000.00,000.0,260516,001.8,W,A*31
$GPRMC,014303.4,A,4304.32570,N,08924.72185,W,000.00,000.0,260516,001.8,W,A*35
$GPRMC,014303.8,A,4304.32570,N,08924.72185,W,000.00,000.0,260516,001.8,W,A*39
$GPRMC,014304.2,A,4304.32569,N,08924.72185,W,000.00,000.0,260516,001.8,W,A*3C
$GPRMC,014304.6,A,4304.32569,N,08924.72185,W,000.01,000.0,260516,001.8,W,A*39
$GPRMC,014305.0,A,4304.32569,N,08924.72185,W,000.01,000.0,260516,001.8,W,A*3E
$GPRMC,014305.4,A,4304.32569,N,08924.72185,W,000.00,000.0,260516,001.8,W,A*3B
$GPRMC,014305.8,A,4304.32569,N,08924.72185,W,000.01,000.0,260516,001.8,W,A*36
$GPRMC,014306.2,A,4304.32569,N,08924.72185,W,000.01,000.0,260516,001.8,W,A*3F
$GPRMC,014306.6,A,4304.32569,N,08924.72185,W,000.01,000.0,260516,001.8,W,A*3B
$GPRMC,014307.0,A,4304.32569,N,08924.72185,W,000.00,000.0,260516,001.8,W,A*3D
$GPRMC,014307.4,A,4304.32568,N,08924.72185,W,000.00,000.0,260516,001.8,W,A*38
$GPRMC,014307.8,A,4304.32568,N,08924.72185,W,000.01,000.0,260516,001.8,W,A*35
$GPRMC,014308.2,A,4304.32568,N,08924.72185,W,000.01,000.0,260516,001.8,W,A*30
$GPRMC,014308.6,A,4304.32568,N,08924.72185,W,000.00,000.0,260516,001.8,W,A*35
$GPRMC,014309.0,A,4304.32568,N,08924.72185,W,000.01,000.0,260516,001.8,W,A*33
$GPRMC,014309.4,A,4304.32568,N,08924.72185,W,000.01,000.0,260516,001.8,W,A*37
$GPRMC,014309.8,A,4304.32568,N,08924.72185,W,000.01,000.0,260516,001.8,W,A*3B
$GPRMC,014310.2,A,4304.32568,N,08924.72186,W,000.00,000.0,260516,001.8,W,A*3B
$GPRMC,014310.6,A,4304.32568,N,08924.72186,W,000.00,000.0,260516,001.8,W,A*3F
$GPRMC,014311.0,A,4304.32567,N,08924.72186,W,000.01,000.0,260516,001.8,W,A*36
$GPRMC,014311.4,A,4304.32567,N,08924.72186,W,000.00,000.0,260516,001.8,W,A*33
$GPRMC,014311.8,A,4304.32567,N,08924.72186,W,000.00,000.0,260516,001.8,W,A*3F
$GPRMC,014312.2,A,4304.32567,N,08924.72186,W,000.00,000.0,260516,001.8,W,A*36
$GPRMC,014312.6,A,4304.32567,N,08924.72186,W,000.00,000.0,260516,001.8,W,A*32
$GPRMC,014313.0,A,4304.32567,N,08924.72186,W,000.00,000.0,260516,001.8,W,A*35
$GPRMC,014313.4,A,4304.32567,N,08924.72186,W,000.01,000.0,260516,001.8,W,A*30
$GPRMC,014313.8,A,4304.32567,N,08924.72186,W,000.01,000.0,260516,001.8,W,A*3C
$GPRMC,014314.2,A,4304.32567,N,08924.72186,W,000.01,000.0,260516,001.8,W,A*31
$GPRMC,014314.6,A,4304.32567,N,08924.72186,W,000.00,000.0,260516,001.8,W,A*34
$GPRMC,014315.0,A,4304.32567,N,08924.72186,W,000.00,000.0,260516,001.8,W,A*33
$GPRMC,014315.4,A,4304.32567,N,08924.72186,W,000.01,000.0,260516,001.8,W,A*36
$GPRMC,014315.8,A,4304.32567,N,08924.72186,W,000.00,000.0,260516,001.8,W,A*3B
$GPRMC,014316.2,A,4304.32566,N,08924.72186,W,000.00,000.0,260516,001.8,W,A*33
$GPRMC,014316.6,A,4304.32567,N,08924.72186,W,000.00,000.0,260516,001.8,W,A*36
$GPRMC,014317.0,A,4304.32567,N,08924.72186,W,000.01,000.0,260516,001.8,W,A*30
$GPRMC,014317.4,A,4304.32567,N,08924.72187,W,000.00,000.0,260516,001.8,W,A*34
$GPRMC,014317.8,A,4304.32567,N,08924.72187,W,000.00,000.0,260516,001.8,W,A*38
$GPRMC,014318.2,A,4304.32566,N,08924.72187,W,000.00,000.0,260516,001.8,W,A*3C
$GPRMC,014318.6,A,4304.32566,N,08924.72187,W,000.00,000.0,260516,001.8,W,A*38
$GPRMC,014319.0,A,4304.32566,N,08924.72187,W,000.00,000.0,260516,001.8,W,A*3F
$GPRMC,014319.4,A,4304.32566,N,08924.72187,W,000.00,000.0,260516,001.8,W,A*3B
$GPRMC,014319.8,A,4304.32566,N,08924.72187,W,000.00,000.0,260516,001.8,W,A*37
$GPRMC,014320.2,A,4304.32566,N,08924.72187,W,000.00,000.0,260516,001.8,W,A*37
$GPRMC,014320.6,A,4304.32566,N,08924.72187,W,000.00,000.0,260516,001.8,W,A*33
$GPRMC,014321.0,A,4304.32566,N,08924.72187,W,000.00,000.0,260516,001.8,W,A*34
$GPRMC,014321.4,A,4304.32566,N,08924.72187,W,000.01,000.0,260516,001.8,W,A*31
$GPGSA,A,3,02,06,09,12,17,19,25,,,,,,2.5,1.7,1.9*3C
$GPRMC,014321.8,A,4304.32566,N,08924.72187,W,000.00,000.0,260516,001.8,W,A*3C
$GPRMC,014322.2,A,4304.32566,N,08924.72187,W,000.01,000.0,260516,001.8,W,A*34
$GPRMC,014322.6,A,4304.32566,N,08924.72188,W,000.00,000.0,260516,001.8,W,A*3E
$GPRMC,014323.0,A,4304.32566,N,08924.72188,W,000.00,000.0,260516,001.8,W,A*39
$GPRMC,014323.4,A,4304.32566,N,08924.72188,W,000.01,000.0,260516,001.8,W,A*3C
$GPRMC,014323.8,A,4304.32566,N,08924.72188,W,000.00,000.0,260516,001.8,W,A*31
$GPRMC,014324.2,A,4304.32566,N,08924.72188,W,000.00,000.0,260516,001.8,W,A*3C
$GPRMC,014324.6,A,4304.32566,N,08924.72188,W,000.01,000.0,260516,001.8,W,A*39
$GPRMC,014325.0,A,4304.32566,N,08924.72188,W,000.00,000.0,260516,001.8,W,A*3F
$GPRMC,014325.4,A,4304.32566,N,08924.72188,W,000.01,000.0,260516,001.8,W,A*3A
$GPRMC,014325.8,A,4304.32566,N,08924.72188,W,000.00,000.0,260516,001.8,W,A*37
$GPRMC,014326.2,A,4304.32566,N,08924.72188,W,000.00,000.0,260516,001.8,W,A*3E
$GPRMC,014326.6,A,4304.32566,N,08924.72188,W,000.00,000.0,260516,001.8,W,A*3A
$GPRMC,014327.0,A,4304.32566,N,08924.72189,W,000.00,000.0,260516,001.8,W,A*3C
$GPRMC,014327.4,A,4304.32566,N,08924.72189,W,000.00,000.0,260516,001.8,W,A*38
$GPRMC,014327.8,A,4304.32566,N,08924.72189,W,000.00,000.0,260516,001.8,W,A*34
$GPRMC,014328.2,A,4304.32566,N,08924.72189,W,000.00,000.0,260516,001.8,W,A*31
$GPRMC,014328.6,A,4304.32566,N,08924.72189,W,000.00,000.0,260516,001.8,W,A*35
$GPRMC,014329.0,A,4304.32566,N,08924.72189,W,000.00,000.0,260516,001.8,W,A*32
$GPRMC,014329.4,A,4304.32566,N,08924.72189,W,000.00,000.0,260516,001.8,W,A*36
$GPRMC,014329.8,A,4304.32566,N,08924.72189,W,000.01,000.0,260516,001.8,W,A*3B
$GPRMC,014330.2,A,4304.32566,N,08924.72189,W,000.00,000.0,260516,001.8,W,A*38
$GPRMC,014330.6,A,4304.32566,N,08924.72189,W,000.00,000.0,260516,001.8,W,A*3C
$GPRMC,014331.0,A,4304.32566,N,08924.72189,W,000.01,000.0,260516,001.8,W,A*3A
$GPRMC,014331.4,A,4304.32566,N,08924.72189,W,000.01,000.0,260516,001.8,W,A*3E
$GPRMC,014331.8,A,4304.32566,N,08924.72189,W,000.00,000.0,260516,001.8,W,A*33
$GPRMC,014332.2,A,4304.32566,N,08924.72189,W,000.01,000.0,260516,001.8,W,A*3B
$GPRMC,014332.6,A,4304.32566,N,08924.72189,W,000.00,000.0,260516,001.8,W,A*3E
$GPRMC,014333.0,A,4304.32566,N,08924.72189,W,000.00,000.0,260516,001.8,W,A*39
$GPRMC,014333.4,A,4304.32566,N,08924.72189,W,000.01,000.0,260516,001.8,W,A*3C
$GPRMC,014333.8,A,4304.32565,N,08924.72189,W,000.01,000.0,260516,001.8,W,A*33
$GPRMC,014334.2,A,4304.32565,N,08924.72189,W,000.00,000.0,260516,001.8,W,A*3F
$GPRMC,014334.6,A,4304.32565,N,08924.72189,W,000.00,000.0,260516,001.8,W,A*3B
$GPRMC,014335.0,A,4304.32565,N,08924.72190,W,000.00,000.0,260516,001.8,W,A*34
$GPRMC,014335.4,A,4304.32565,N,08924.72190,W,000.00,000.0,260516,001.8,W,A*30
$GPRMC,014335.8,A,4304.32565,N,08924.72189,W,000.00,000.0,260516,001.8,W,A*34
$GPRMC,014336.2,A,4304.32565,N,08924.72189,W,000.00,000.0,260516,001.8,W,A*3D
$GPRMC,014336.6,A,4304.32565,N,08924.72190,W,000.00,000.0,260516,001.8,W,A*31
$GPRMC,014337.0,A,4304.32565,N,08924.72190,W,000.00,000.0,260516,001.8,W,A*36
$GPRMC,014337.4,A,4304.32565,N,08924.72190,W,000.00,000.0,260516,001.8,W,A*32
$GPRMC,014337.8,A,4304.32565,N,08924.72190,W,000.00,000.0,260516,001.8,W,A*3E
$GPRMC,014338.2,A,4304.32565,N,08924.72190,W,000.00,000.0,260516,001.8,W,A*3B
$GPRMC,014338.6,A,4304.32565,N,08924.72190,W,000.00,000.0,260516,001.8,W,A*3F
$GPGSA,A,3,02,06,09,12,17,19,25,,,,,,2.5,1.6,1.9*3D
$GPRMC,014339.0,A,4304.32565,N,08924.72190,W,000.00,000.0,260516,001.8,W,A*38
$GPRMC,014339.4,A,4304.32565,N,08924.72190,W,000.00,000.0,260516,001.8,W,A*3C
$GPRMC,014339.8,A,4304.32565,N,08924.72190,W,000.00,000.0,260516,001.8,W,A*30
$GPRMC,014340.2,A,4304.32565,N,08924.72190,W,000.00,000.0,260516,001.8,W,A*34
$GPRMC,014340.6,A,4304.32565,N,08924.72190,W,000.00,000.0,260516,001.8,W,A*30
$GPRMC,014341.0,A,4304.32565,N,08924.72190,W,000.00,000.0,260516,001.8,W,A*37
$GPRMC,014341.4,A,4304.32564,N,08924.72190,W,000.00,000.0,260516,001.8,W,A*32
$GPRMC,014341.8,A,4304.32564,N,08924.72190,W,000.01,000.0,260516,001.8,W,A*3F
$GPRMC,014342.2,A,4304.32564,N,08924.72190,W,000.01,000.0,260516,001.8,W,A*36
$GPRMC,014342.6,A,4304.32564,N,08924.72190,W,000.00,000.0,260516,001.8,W,A*33
$GPRMC,014343.0,A,4304.32564,N,08924.72190,W,000.00,000.0,260516,001.8,W,A*34
$GPRMC,014343.4,A,4304.32564,N,08924.72190,W,000.00,000.0,260516,001.8,W,A*30
$GPRMC,014343.8,A,4304.32564,N,08924.72190,W,000.00,000.0,260516,001.8,W,A*3C
$GPRMC,014344.2,A,4304.32564,N,08924.72190,W,000.00,000.0,260516,001.8,W,A*31
$GPRMC,014344.6,A,4304.32564,N,08924.72190,W,000.01,000.0,260516,001.8,W,A*34
$GPRMC,014345.0,A,4304.32564,N,08924.72190,W,000.00,000.0,260516,001.8,W,A*32
$GPRMC,014345.4,A,4304.32563,N,08924.72190,W,000.00,000.0,260516,001.8,W,A*31
$GPRMC,014345.8,A,4304.32563,N,08924.72190,W,000.01,000.0,260516,001.8,W,A*3C
$GPRMC,014346.2,A,4304.32563,N,08924.72190,W,000.01,000.0,260516,001.8,W,A*35
$GPRMC,014346.6,A,4304.32563,N,08924.72190,W,000.02,000.0,260516,001.8,W,A*32
$GPRMC,014347.0,A,4304.32563,N,08924.72190,W,000.02,000.0,260516,001.8,W,A*35
$GPRMC,014347.4,A,4304.32563,N,08924.72190,W,000.14,000.0,260516,001.8,W,A*36
$GPRMC,014347.8,A,4304.32563,N,08924.72190,W,000.01,000.0,260516,001.8,W,A*3E
$GPRMC,014348.2,A,4304.32563,N,08924.72190,W,000.01,000.0,260516,001.8,W,A*3B
$GPRMC,014348.6,A,4304.32563,N,08924.72191,W,000.04,000.0,260516,001.8,W,A*3B
$GPRMC,014349.0,A,4304.32564,N,08924.72191,W,000.04,000.0,260516,001.8,W,A*3B
$GPRMC,014349.4,A,4304.32564,N,08924.72191,W,000.04,000.0,260516,001.8,W,A*3F
$GPRMC,014349.8,A,4304.32564,N,08924.72192,W,000.04,000.0,260516,001.8,W,A*30
$GPRMC,014350.2,A,4304.32565,N,08924.72192,W,000.04,000.0,260516,001.8,W,A*33
$GPRMC,014350.6,A,4304.32565,N,08924.72193,W,000.09,000.0,260516,001.8,W,A*3B
$GPRMC,014351.0,A,4304.32566,N,08924.72193,W,000.09,000.0,260516,001.8,W,A*3F
$GPRMC,014351.4,A,4304.32567,N,08924.72194,W,000.09,000.0,260516,001.8,W,A*3D
$GPRMC,014351.8,A,4304.32568,N,08924.72194,W,000.08,000.0,260516,001.8,W,A*3F
$GPRMC,014352.2,A,4304.32568,N,08924.72195,W,000.08,000.0,260516,001.8,W,A*37
$GPRMC,014352.6,A,4304.32569,N,08924.72196,W,000.08,000.0,260516,001.8,W,A*31
$GPRMC,014353.0,A,4304.32570,N,08924.72197,W,000.09,000.0,260516,001.8,W,A*3E
$GPRMC,014353.4,A,4304.32570,N,08924.72199,W,000.09,000.0,260516,001.8,W,A*34
$GPRMC,014353.8,A,4304.32571,N,08924.72200,W,000.10,000.0,260516,001.8,W,A*32
$GPRMC,014354.2,A,4304.32571,N,08924.72201,W,000.10,000.0,260516,001.8,W,A*3E
$GPRMC,014354.6,A,4304.32572,N,08924.72202,W,000.09,000.0,260516,001.8,W,A*32
$GPRMC,014355.0,A,4304.32572,N,08924.72204,W,000.11,000.0,260516,001.8,W,A*3A
$GPRMC,014355.4,A,4304.32573,N,08924.72205,W,000.10,000.0,260516,001.8,W,A*3F
$GPRMC,014355.8,A,4304.32573,N,08924.72206,W,000.10,000.0,260516,001.8,W,A*30
$GPGSA,A,3,02,06,09,12,17,19,25,,,,,,1.8,1.6,0.9*32
$GPRMC,014356.2,A,4304.32573,N,08924.72207,W,000.05,000.0,260516,001.8,W,A*3C
$GPRMC,014356.6,A,4304.32573,N,08924.72207,W,000.02,000.0,260516,001.8,W,A*3F
$GPRMC,014357.0,A,4304.32573,N,08924.72208,W,000.02,000.0,260516,001.8,W,A*37
$GPRMC,014357.4,A,4304.32573,N,08924.72208,W,000.02,000.0,260516,001.8,W,A*33
$GPRMC,014357.8,A,4304.32574,N,08924.72208,W,000.05,000.0,260516,001.8,W,A*3F
$GPRMC,014358.2,A,4304.32574,N,08924.72208,W,000.09,000.0,260516,001.8,W,A*36
$GPRMC,014358.6,A,4304.32575,N,08924.72208,W,000.07,000.0,260516,001.8,W,A*3D
$GPRMC,014359.0,A,4304.32576,N,08924.72208,W,000.03,000.0,260516,001.8,W,A*3D
$GPRMC,014359.4,A,4304.32576,N,08924.72207,W,000.03,000.0,260516,001.8,W,A*36
$GPRMC,014359.8,A,4304.32576,N,08924.72207,W,000.03,000.0,260516,001.8,W,A*3A
$GPRMC,014400.2,A,4304.32576,N,08924.72206,W,000.04,000.0,260516,001.8,W,A*3D
$GPRMC,014400.6,A,4304.32576,N,08924.72206,W,000.04,000.0,260516,001.8,W,A*39
$GPRMC,014401.0,A,4304.32575,N,08924.72205,W,000.05,000.0,260516,001.8,W,A*3F
$GPRMC,014401.4,A,4304.32575,N,08924.72204,W,000.05,000.0,260516,001.8,W,A*3A
$GPRMC,014401.8,A,4304.32575,N,08924.72203,W,000.05,000.0,260516,001.8,W,A*31
$GPRMC,014402.2,A,4304.32575,N,08924.72203,W,000.05,000.0,260516,001.8,W,A*38
$GPRMC,014402.6,A,4304.32575,N,08924.72202,W,000.05,000.0,260516,001.8,W,A*3D
$GPRMC,014403.0,A,4304.32574,N,08924.72201,W,000.08,000.0,260516,001.8,W,A*35
$GPRMC,014403.4,A,4304.32573,N,08924.72201,W,000.09,000.0,260516,001.8,W,A*37
$GPRMC,014403.8,A,4304.32573,N,08924.72199,W,000.10,000.0,260516,001.8,W,A*31
$GPRMC,014404.2,A,4304.32572,N,08924.72198,W,000.12,000.0,260516,001.8,W,A*3E
$GPRMC,014404.6,A,4304.32571,N,08924.72197,W,000.12,000.0,260516,001.8,W,A*36
$GPRMC,014405.0,A,4304.32570,N,08924.72195,W,000.14,000.0,260516,001.8,W,A*34
$GPRMC,014405.4,A,4304.32569,N,08924.72193,W,000.15,000.0,260516,001.8,W,A*3F
$GPRMC,014405.8,A,4304.32568,N,08924.72191,W,000.16,000.0,260516,001.8,W,A*33
$GPRMC,014406.2,A,4304.32567,N,08924.72189,W,000.19,000.0,260516,001.8,W,A*33
$GPRMC,014406.6,A,4304.32566,N,08924.72186,W,000.21,000.0,260516,001.8,W,A*32
$GPRMC,014407.0,A,4304.32565,N,08924.72183,W,000.23,000.0,260516,001.8,W,A*31
$GPRMC,014407.4,A,4304.32563,N,08924.72180,W,000.25,000.0,260516,001.8,W,A*36
$GPRMC,014407.8,A,4304.32561,N,08924.72177,W,000.27,000.0,260516,001.8,W,A*32
$GPRMC,014408.2,A,4304.32560,N,08924.72173,W,000.29,000.0,260516,001.8,W,A*3C
$GPRMC,014408.6,A,4304.32558,N,08924.72168,W,000.38,000.0,260516,001.8,W,A*39
$GPRMC,014409.0,A,4304.32556,N,08924.72162,W,000.52,000.0,260516,001.8,W,A*36
$GPRMC,014409.4,A,4304.32550,N,08924.72139,W,001.44,000.0,260516,001.8,W,A*3C
$GPRMC,014409.8,A,4304.32542,N,08924.72102,W,001.59,000.0,260516,001.8,W,A*37
$GPRMC,014410.2,A,4304.32532,N,08924.72060,W,001.70,000.0,260516,001.8,W,A*3C
$GPRMC,014410.6,A,4304.32527,N,08924.72025,W,002.08,105.4,260516,001.8,W,A*31
$GPRMC,014411.0,A,4304.32522,N,08924.71989,W,002.48,103.4,260516,001.8,W,A*3D
$GPRMC,014411.4,A,4304.32514,N,08924.71948,W,002.58,101.6,260516,001.8,W,A*30
$GPRMC,014411.8,A,4304.32518,N,08924.71905,W,002.68,099.3,260516,001.8,W,A*3F
$GPRMC,014412.2,A,4304.32520,N,08924.71868,W,001.99,097.3,260516,001.8,W,A*34
$GPRMC,014412.6,A,4304.32508,N,08924.71845,W,001.04,096.9,260516,001.8,W,A*3A
$GPRMC,014413.0,A,4304.32497,N,08924.71826,W,000.96,097.5,260516,001.8,W,A*38
$GPRMC,014413.4,A,4304.32487,N,08924.71819,W,000.88,098.8,260516,001.8,W,A*3C
$GPRMC,014413.8,A,4304.32468,N,08924.71823,W,000.71,101.3,260516,001.8,W,A*34
$GPRMC,014414.2,A,4304.32452,N,08924.71807,W,000.65,103.9,260516,001.8,W,A*3B
$GPRMC,014414.6,A,4304.32430,N,08924.71796,W,000.72,107.1,260516,001.8,W,A*36
$GPRMC,014415.0,A,4304.32418,N,08924.71776,W,000.72,110.5,260516,001.8,W,A*37
$GPRMC,014415.4,A,4304.32431,N,08924.71773,W,000.48,110.5,260516,001.8,W,A*34
$GPRMC,014415.8,A,4304.32444,N,08924.71763,W,000.25,110.5,260516,001.8,W,A*30
$GPRMC,014416.2,A,4304.32435,N,08924.71730,W,000.19,110.5,260516,001.8,W,A*36
$GPRMC,014416.6,A,4304.32423,N,08924.71696,W,000.16,110.5,260516,001.8,W,A*37
$GPRMC,014417.0,A,4304.32415,N,08924.71662,W,000.11,110.5,260516,001.8,W,A*39
$GPRMC,014417.4,A,4304.32412,N,08924.71620,W,000.08,110.5,260516,001.8,W,A*34
$GPRMC,014417.8,A,4304.32395,N,08924.71585,W,000.07,110.5,260516,001.8,W,A*33
$GPRMC,014418.2,A,4304.32390,N,08924.71554,W,000.06,110.5,260516,001.8,W,A*3E
$GPRMC,014418.6,A,4304.32386,N,08924.71527,W,000.06,110.5,260516,001.8,W,A*39
$GPRMC,014419.0,A,4304.32385,N,08924.71527,W,000.04,110.5,260516,001.8,W,A*3F
$GPRMC,014419.4,A,4304.32384,N,08924.71526,W,000.05,110.5,260516,001.8,W,A*3A
$GPRMC,014419.8,A,4304.32383,N,08924.71525,W,000.04,110.5,260516,001.8,W,A*33
$GPRMC,014420.2,A,4304.32383,N,08924.71524,W,000.03,110.5,260516,001.8,W,A*35
$GPRMC,014420.6,A,4304.32383,N,08924.71524,W,000.02,110.5,260516,001.8,W,A*30
$GPRMC,014421.0,A,4304.32382,N,08924.71523,W,000.02,110.5,260516,001.8,W,A*31
$GPRMC,014421.4,A,4304.32382,N,08924.71523,W,000.02,110.5,260516,001.8,W,A*35
$GPRMC,014421.8,A,4304.32382,N,08924.71522,W,000.02,110.5,260516,001.8,W,A*38
$GPRMC,014422.2,A,4304.32381,N,08924.71522,W,000.01,110.5,260516,001.8,W,A*31
$GPRMC,014422.6,A,4304.32381,N,08924.71521,W,000.02,110.5,260516,001.8,W,A*35
$GPRMC,014423.0,A,4304.32380,N,08924.71521,W,000.02,110.5,260516,001.8,W,A*33
$GPRMC,014423.4,A,4304.32380,N,08924.71520,W,000.01,110.5,260516,001.8,W,A*35
$GPRMC,014423.8,A,4304.32380,N,08924.71519,W,000.02,110.5,260516,001.8,W,A*30
$GPRMC,014424.2,A,4304.32380,N,08924.71519,W,000.02,110.5,260516,001.8,W,A*3D
$GPRMC,014424.6,A,4304.32379,N,08924.71518,W,000.02,110.5,260516,001.8,W,A*3E
$GPRMC,014425.0,A,4304.32379,N,08924.71518,W,000.02,110.5,260516,001.8,W,A*39
$GPRMC,014425.4,A,4304.32379,N,08924.71517,W,000.03,110.5,260516,001.8,W,A*33
$GPRMC,014425.8,A,4304.32378,N,08924.71517,W,000.02,110.5,260516,001.8,W,A*3F
$GPRMC,014426.2,A,4304.32378,N,08924.71516,W,000.02,110.5,260516,001.8,W,A*37
$GPRMC,014426.6,A,4304.32377,N,08924.71516,W,000.02,110.5,260516,001.8,W,A*3C
$GPRMC,014427.0,A,4304.32377,N,08924.71516,W,000.01,110.5,260516,001.8,W,A*38
$GPRMC,014427.4,A,4304.32377,N,08924.71515,W,000.02,110.5,260516,001.8,W,A*3C
$GPRMC,014427.8,A,4304.32376,N,08924.71514,W,000.02,110.5,260516,001.8,W,A*30
$GPRMC,014428.2,A,4304.32376,N,08924.71514,W,000.02,110.5,260516,001.8,W,A*35
$GPRMC,014428.6,A,4304.32376,N,08924.71513,W,000.02,110.5,260516,001.8,W,A*36
$GPRMC,014429.0,A,4304.32376,N,08924.71513,W,000.02,110.5,260516,001.8,W,A*31
$GPGSA,A,3,02,06,09,12,17,19,25,,,,,,2.5,1.6,1.9*3D
$GPRMC,014429.4,A,4304.32375,N,08924.71512,W,000.02,110.5,260516,001.8,W,A*37
$GPRMC,014429.8,A,4304.32375,N,08924.71511,W,000.01,110.5,260516,001.8,W,A*3B
$GPRMC,014430.2,A,4304.32375,N,08924.71511,W,000.02,110.5,260516,001.8,W,A*3A
$GPRMC,014430.6,A,4304.32374,N,08924.71511,W,000.03,110.5,260516,001.8,W,A*3E
$GPRMC,014431.0,A,4304.32374,N,08924.71510,W,000.02,110.5,260516,001.8,W,A*39
$GPRMC,014431.4,A,4304.32374,N,08924.71509,W,000.03,110.5,260516,001.8,W,A*34
$GPRMC,014431.8,A,4304.32373,N,08924.71509,W,000.02,110.5,260516,001.8,W,A*3E
$GPRMC,014432.2,A,4304.32373,N,08924.71508,W,000.02,110.5,260516,001.8,W,A*36
$GPRMC,014432.6,A,4304.32373,N,08924.71507,W,000.03,110.5,260516,001.8,W,A*3C
$GPRMC,014433.0,A,4304.32373,N,08924.71506,W,000.03,110.5,260516,001.8,W,A*3A
$GPRMC,014433.4,A,4304.32373,N,08924.71506,W,000.01,110.5,260516,001.8,W,A*3C
$GPRMC,014433.8,A,4304.32373,N,08924.71505,W,000.01,110.5,260516,001.8,W,A*33
$GPRMC,014434.2,A,4304.32372,N,08924.71505,W,000.00,110.5,260516,001.8,W,A*3E
$GPRMC,014434.6,A,4304.32372,N,08924.71505,W,000.01,110.5,260516,001.8,W,A*3B
$GPRMC,014435.0,A,4304.32372,N,08924.71504,W,000.01,110.5,260516,001.8,W,A*3D
$GPRMC,014435.4,A,4304.32372,N,08924.71504,W,000.01,110.5,260516,001.8,W,A*39
$GPRMC,014435.8,A,4304.32372,N,08924.71503,W,000.00,110.5,260516,001.8,W,A*33
$GPRMC,014436.2,A,4304.32372,N,08924.71503,W,000.01,110.5,260516,001.8,W,A*3B
$GPRMC,014436.6,A,4304.32372,N,08924.71502,W,000.01,110.5,260516,001.8,W,A*3E
$GPRMC,014437.0,A,4304.32372,N,08924.71502,W,000.01,110.5,260516,001.8,W,A*39
$GPRMC,014437.4,A,4304.32372,N,08924.71501,W,000.02,110.5,260516,001.8,W,A*3D
$GPRMC,014437.8,A,4304.32372,N,08924.71501,W,000.02,110.5,260516,001.8,W,A*31
$GPRMC,014438.2,A,4304.32372,N,08924.71500,W,000.02,110.5,260516,001.8,W,A*35
$GPRMC,014438.6,A,4304.32372,N,08924.71500,W,000.02,110.5,260516,001.8,W,A*31
$GPRMC,014439.0,A,4304.32372,N,08924.71499,W,000.02,110.5,260516,001.8,W,A*37
$GPRMC,014439.4,A,4304.32372,N,08924.71499,W,000.02,110.5,260516,001.8,W,A*33
$GPRMC,014439.8,A,4304.32372,N,08924.71498,W,000.02,110.5,260516,001.8,W,A*3E
$GPRMC,014440.2,A,4304.32372,N,08924.71498,W,000.02,110.5,260516,001.8,W,A*3A
$GPRMC,014440.6,A,4304.32372,N,08924.71497,W,000.02,110.5,260516,001.8,W,A*31
$GPRMC,014441.0,A,4304.32372,N,08924.71497,W,000.02,110.5,260516,001.8,W,A*36
$GPRMC,014441.4,A,4304.32372,N,08924.71497,W,000.02,110.5,260516,001.8,W,A*32
$GPRMC,014441.8,A,4304.32372,N,08924.71496,W,000.02,110.5,260516,001.8,W,A*3F
$GPRMC,014442.2,A,4304.32372,N,08924.71496,W,000.02,110.5,260516,001.8,W,A*36
$GPRMC,014442.6,A,4304.32372,N,08924.71495,W,000.02,110.5,260516,001.8,W,A*31
$GPRMC,014443.0,A,4304.32372,N,08924.71495,W,000.02,110.5,260516,001.8,W,A*36
$GPRMC,014443.4,A,4304.32372,N,08924.71495,W,000.02,110.5,260516,001.8,W,A*32
$GPRMC,014443.8,A,4304.32372,N,08924.71494,W,000.02,110.5,260516,001.8,W,A*3F
$GPRMC,014444.2,A,4304.32372,N,08924.71494,W,000.01,110.5,260516,001.8,W,A*31
$GPRMC,014444.6,A,4304.32372,N,08924.71494,W,000.02,110.5,260516,001.8,W,A*36
$GPRMC,014445.0,A,4304.32372,N,08924.71494,W,000.01,110.5,260516,001.8,W,A*32
$GPRMC,014445.4,A,4304.32372,N,08924.71494,W,000.01,110.5,260516,001.8,W,A*36
$GPRMC,014445.8,A,4304.32372,N,08924.71493,W,000.01,110.5,260516,001.8,W,A*3D
$GPRMC,014446.2,A,4304.32372,N,08924.71493,W,000.02,110.5,260516,001.8,W,A*37
$GPRMC,014446.6,A,4304.32372,N,08924.71493,W,000.02,110.5,260516,001.8,W,A*33
$GPRMC,014447.0,A,4304.32372,N,08924.71493,W,000.01,110.5,260516,001.8,W,A*37
$GPRMC,014447.4,A,4304.32372,N,08924.71493,W,000.01,110.5,260516,001.8,W,A*33
$GPRMC,014447.8,A,4304.32372,N,08924.71492,W,000.02,110.5,260516,001.8,W,A*3D
$GPRMC,014448.2,A,4304.32372,N,08924.71492,W,000.01,110.5,260516,001.8,W,A*3B
$GPRMC,014448.6,A,4304.32372,N,08924.71492,W,000.02,110.5,260516,001.8,W,A*3C
$GPRMC,014449.0,A,4304.32373,N,08924.71492,W,000.01,110.5,260516,001.8,W,A*39
$GPRMC,014449.4,A,4304.32373,N,08924.71491,W,000.02,110.5,260516,001.8,W,A*3D
$GPRMC,014449.8,A,4304.32373,N,08924.71491,W,000.02,110.5,260516,001.8,W,A*31
$GPRMC,014450.2,A,4304.32373,N,08924.71491,W,000.02,110.5,260516,001.8,W,A*33
$GPRMC,014450.6,A,4304.32373,N,08924.71491,W,000.02,110.5,260516,001.8,W,A*37
$GPRMC,014451.0,A,4304.32373,N,08924.71490,W,000.02,110.5,260516,001.8,W,A*31
$GPRMC,014451.4,A,4304.32373,N,08924.71490,W,000.02,110.5,260516,001.8,W,A*35
$GPRMC,014451.8,A,4304.32373,N,08924.71490,W,000.02,110.5,260516,001.8,W,A*39
$GPRMC,014452.2,A,4304.32373,N,08924.71489,W,000.02,110.5,260516,001.8,W,A*38
$GPRMC,014452.6,A,4304.32373,N,08924.71489,W,000.02,110.5,260516,001.8,W,A*3C
$GPRMC,014453.0,A,4304.32373,N,08924.71489,W,000.02,110.5,260516,001.8,W,A*3B
$GPRMC,014453.4,A,4304.32373,N,08924.71488,W,000.02,110.5,260516,001.8,W,A*3E
$GPRMC,014453.8,A,4304.32374,N,08924.71488,W,000.02,110.5,260516,001.8,W,A*35
$GPRMC,014454.2,A,4304.32374,N,08924.71487,W,000.02,110.5,260516,001.8,W,A*37
$GPRMC,014454.6,A,4304.32374,N,08924.71487,W,000.03,110.5,260516,001.8,W,A*32
$GPRMC,014455.0,A,4304.32374,N,08924.71486,W,000.03,110.5,260516,001.8,W,A*34
$GPRMC,014455.4,A,4304.32374,N,08924.71486,W,000.03,110.5,260516,001.8,W,A*30
$GPRMC,014455.8,A,4304.32374,N,08924.71486,W,000.02,110.5,260516,001.8,W,A*3D
$GPRMC,014456.2,A,4304.32374,N,08924.71485,W,000.03,110.5,260516,001.8,W,A*36
$GPRMC,014456.6,A,4304.32374,N,08924.71485,W,000.02,110.5,260516,001.8,W,A*33
$GPRMC,014457.0,A,4304.32375,N,08924.71484,W,000.03,110.5,260516,001.8,W,A*35
$GPRMC,014457.4,A,4304.32375,N,08924.71484,W,000.02,110.5,260516,001.8,W,A*30
$GPRMC,014457.8,A,4304.32375,N,08924.71484,W,000.03,110.5,260516,001.8,W,A*3D
$GPRMC,014458.2,A,4304.32375,N,08924.71483,W,000.03,110.5,260516,001.8,W,A*3F
$GPRMC,014458.6,A,4304.32375,N,08924.71483,W,000.04,110.5,260516,001.8,W,A*3C
$GPRMC,014459.0,A,4304.32375,N,08924.71482,W,000.03,110.5,260516,001.8,W,A*3D
$GPRMC,014459.4,A,4304.32375,N,08924.71482,W,000.04,110.5,260516,001.8,W,A*3E
$GPRMC,014459.8,A,4304.32375,N,08924.71482,W,000.04,110.5,260516,001.8,W,A*32
$GPRMC,014500.2,A,4304.32375,N,08924.71481,W,000.03,110.5,260516,001.8,W,A*31
$GPGSV,2,2,08,12,59,261,48,17,15,112,37,19,39,105,42,25,34,307,46*75
$GPRMC,014500.6,A,4304.32376,N,08924.71481,W,000.03,110.5,260516,001.8,W,A*36
$GPRMC,014501.0,A,4304.32376,N,08924.71481,W,000.02,110.5,260516,001.8,W,A*30
$GPRMC,014501.4,A,4304.32376,N,08924.71480,W,000.03,110.5,260516,001.8,W,A*34
$GPRMC,014501.8,A,4304.32376,N,08924.71480,W,000.03,110.5,260516,001.8,W,A*38
$GPRMC,014502.2,A,4304.32376,N,08924.71480,W,000.03,110.5,260516,001.8,W,A*31
$GPRMC,014502.6,A,4304.32376,N,08924.71479,W,000.07,110.5,260516,001.8,W,A*37
$GPRMC,014503.0,A,4304.32376,N,08924.71478,W,000.07,110.5,260516,001.8,W,A*31
$GPRMC,014503.4,A,4304.32375,N,08924.71477,W,000.07,110.5,260516,001.8,W,A*39
$GPRMC,014503.8,A,4304.32375,N,08924.71476,W,000.09,110.5,260516,001.8,W,A*3A
$GPRMC,014504.2,A,4304.32374,N,08924.71475,W,000.10,110.5,260516,001.8,W,A*3D
$GPRMC,014504.6,A,4304.32374,N,08924.71474,W,000.09,110.5,260516,001.8,W,A*30
$GPRMC,014505.0,A,4304.32373,N,08924.71473,W,000.07,110.5,260516,001.8,W,A*39
$GPRMC,014505.4,A,4304.32373,N,08924.71472,W,000.06,110.5,260516,001.8,W,A*3D
$GPRMC,014505.8,A,4304.32373,N,08924.71471,W,000.05,110.5,260516,001.8,W,A*31
$GPRMC,014506.2,A,4304.32372,N,08924.71470,W,000.04,110.5,260516,001.8,W,A*39
$GPRMC,014506.6,A,4304.32372,N,08924.71469,W,000.04,110.5,260516,001.8,W,A*35
$GPRMC,014507.0,A,4304.32372,N,08924.71469,W,000.05,110.5,260516,001.8,W,A*33
$GPRMC,014507.4,A,4304.32372,N,08924.71467,W,000.06,110.5,260516,001.8,W,A*3A
$GPGSV,2,2,08,12,59,261,41,17,15,113,37,19,39,105,41,25,35,307,37*79
$GPRMC,014507.8,A,4304.32372,N,08924.71466,W,000.05,110.5,260516,001.8,W,A*34
$GPRMC,014508.2,A,4304.32371,N,08924.71465,W,000.04,110.5,260516,001.8,W,A*30
$GPRMC,014508.6,A,4304.32371,N,08924.71465,W,000.04,110.5,260516,001.8,W,A*34
$GPRMC,014509.0,A,4304.32371,N,08924.71464,W,000.05,110.5,260516,001.8,W,A*33
$GPRMC,014509.4,A,4304.32371,N,08924.71463,W,000.05,110.5,260516,001.8,W,A*30
$GPRMC,014509.8,A,4304.32371,N,08924.71462,W,000.06,110.5,260516,001.8,W,A*3E
$GPRMC,014510.2,A,4304.32371,N,08924.71461,W,000.05,110.5,260516,001.8,W,A*3C
$GPRMC,014510.6,A,4304.32371,N,08924.71460,W,000.05,110.5,260516,001.8,W,A*39
$GPRMC,014511.0,A,4304.32371,N,08924.71459,W,000.04,110.5,260516,001.8,W,A*35
$GPRMC,014511.4,A,4304.32371,N,08924.71458,W,000.04,110.5,260516,001.8,W,A*30
$GPRMC,014511.8,A,4304.32371,N,08924.71457,W,000.04,110.5,260516,001.8,W,A*33
$GPRMC,014512.2,A,4304.32370,N,08924.71457,W,000.03,110.5,260516,001.8,W,A*3C
$GPRMC,014512.6,A,4304.32370,N,08924.71456,W,000.04,110.5,260516,001.8,W,A*3E
$GPRMC,014513.0,A,4304.32370,N,08924.71455,W,000.04,110.5,260516,001.8,W,A*3A
$GPRMC,014513.4,A,4304.32370,N,08924.71455,W,000.03,110.5,260516,001.8,W,A*39
$GPRMC,014513.8,A,4304.32370,N,08924.71454,W,000.03,110.5,260516,001.8,W,A*34
$GPRMC,014514.2,A,4304.32370,N,08924.71453,W,000.03,110.5,260516,001.8,W,A*3E
$GPRMC,014514.6,A,4304.32370,N,08924.71453,W,000.03,110.5,260516,001.8,W,A*3A
$GPRMC,014515.0,A,4304.32370,N,08924.71452,W,000.03,110.5,260516,001.8,W,A*3C
$GPGSV,2,1,08,02,74,296,39,05,32,191,38,06,48,055,38,09,14,074,38*77
$GPRMC,014515.4,A,4304.32370,N,08924.71452,W,000.03,110.5,260516,001.8,W,A*38
$GPRMC,014515.8,A,4304.32370,N,08924.71451,W,000.03,110.5,260516,001.8,W,A*37
$GPRMC,014516.2,A,4304.32369,N,08924.71450,W,000.03,110.5,260516,001.8,W,A*37
$GPRMC,014516.6,A,4304.32369,N,08924.71450,W,000.02,110.5,260516,001.8,W,A*32
$GPRMC,014517.0,A,4304.32369,N,08924.71450,W,000.01,110.5,260516,001.8,W,A*36
$GPRMC,014517.4,A,4304.32369,N,08924.71449,W,000.03,110.5,260516,001.8,W,A*38
$GPRMC,014517.8,A,4304.32369,N,08924.71449,W,000.04,110.5,260516,001.8,W,A*33
$GPRMC,014518.2,A,4304.32369,N,08924.71448,W,000.03,110.5,260516,001.8,W,A*30
$GPRMC,014518.6,A,4304.32369,N,08924.71447,W,000.02,110.5,260516,001.8,W,A*3A
$GPRMC,014519.0,A,4304.32370,N,08924.71447,W,000.04,110.5,260516,001.8,W,A*33
$GPRMC,014519.4,A,4304.32370,N,08924.71446,W,000.09,110.5,260516,001.8,W,A*3B
$GPRMC,014519.8,A,4304.32371,N,08924.71446,W,000.09,110.5,260516,001.8,W,A*36
$GPRMC,014520.2,A,4304.32372,N,08924.71445,W,000.09,110.5,260516,001.8,W,A*36
$GPRMC,014520.6,A,4304.32373,N,08924.71443,W,000.20,117.2,260516,001.8,W,A*3E
$GPRMC,014521.0,A,4304.32374,N,08924.71439,W,000.66,117.2,260516,001.8,W,A*31
$GPRMC,014521.4,A,4304.32380,N,08924.71405,W,001.71,117.2,260516,001.8,W,A*36
$GPRMC,014521.8,A,4304.32387,N,08924.71365,W,002.37,117.2,260516,001.8,W,A*3D
$GPRMC,014522.2,A,4304.32394,N,08924.71317,W,002.72,078.9,260516,001.8,W,A*31
$GPRMC,014522.6,A,4304.32402,N,08924.71268,W,002.75,077.8,260516,001.8,W,A*3D
$GPRMC,014523.0,A,4304.32406,N,08924.71213,W,003.04,079.2,260516,001.8,W,A*31
$GPRMC,014523.4,A,4304.32409,N,08924.71155,W,003.17,078.6,260516,001.8,W,A*3C
$GPRMC,014523.8,A,4304.32417,N,08924.71098,W,002.99,078.4,260516,001.8,W,A*3A
$GPRMC,014524.2,A,4304.32424,N,08924.71048,W,002.81,078.5,260516,001.8,W,A*32
$GPRMC,014524.6,A,4304.32438,N,08924.70997,W,002.88,078.7,260516,001.8,W,A*3A
$GPRMC,014525.0,A,4304.32450,N,08924.70945,W,002.98,078.3,260516,001.8,W,A*39
$GPRMC,014525.4,A,4304.32464,N,08924.70889,W,002.96,077.5,260516,001.8,W,A*3C
$GPRMC,014525.8,A,4304.32473,N,08924.70842,W,003.07,079.0,260516,001.8,W,A*33
$GPRMC,014526.2,A,4304.32482,N,08924.70784,W,002.79,076.4,260516,001.8,W,A*32
$GPRMC,014526.6,A,4304.32492,N,08924.70733,W,003.18,075.4,260516,001.8,W,A*3E
$GPRMC,014527.0,A,4304.32502,N,08924.70685,W,003.14,069.0,260516,001.8,W,A*38
$GPRMC,014527.4,A,4304.32519,N,08924.70642,W,002.89,067.0,260516,001.8,W,A*36
$GPRMC,014527.8,A,4304.32532,N,08924.70592,W,003.09,071.8,260516,001.8,W,A*3B
$GPRMC,014528.2,A,4304.32541,N,08924.70547,W,002.79,067.8,260516,001.8,W,A*33
$GPRMC,014528.6,A,4304.32552,N,08924.70506,W,002.90,081.8,260516,001.8,W,A*3F
$GPRMC,014529.0,A,4304.32560,N,08924.70457,W,002.74,076.5,260516,001.8,W,A*33
$GPRMC,014529.4,A,4304.32567,N,08924.70410,W,003.06,086.3,260516,001.8,W,A*3E
$GPRMC,014529.8,A,4304.32572,N,08924.70358,W,003.02,082.2,260516,001.8,W,A*3C
$GPGSV,2,2,08,12,59,261,42,17,15,113,24,19,39,105,40,25,35,307,33*7D
$GPRMC,014530.2,A,4304.32577,N,08924.70304,W,003.01,077.1,260516,001.8,W,A*38
$GPRMC,014530.6,A,4304.32584,N,08924.70254,W,002.98,079.9,260516,001.8,W,A*33
$GPRMC,014531.0,A,4304.32595,N,08924.70212,W,003.01,074.9,260516,001.8,W,A*3A
$GPRMC,014531.4,A,4304.32608,N,08924.70160,W,002.98,072.5,260516,001.8,W,A*34
$GPRMC,014531.8,A,4304.32614,N,08924.70110,W,003.07,081.6,260516,001.8,W,A*3A
$GPRMC,014532.2,A,4304.32624,N,08924.70058,W,002.90,069.2,260516,001.8,W,A*30
$GPRMC,014532.6,A,4304.32633,N,08924.70014,W,002.77,078.6,260516,001.8,W,A*37
$GPRMC,014533.0,A,4304.32642,N,08924.69968,W,002.92,074.7,260516,001.8,W,A*3A
$GPRMC,014533.4,A,4304.32650,N,08924.69922,W,002.77,077.0,260516,001.8,W,A*3C
$GPRMC,014533.8,A,4304.32657,N,08924.69874,W,003.03,079.5,260516,001.8,W,A*3C
$GPRMC,014534.2,A,4304.32668,N,08924.69823,W,003.02,071.1,260516,001.8,W,A*32
$GPRMC,014534.6,A,4304.32673,N,08924.69778,W,003.07,085.7,260516,001.8,W,A*35
$GPRMC,014535.0,A,4304.32676,N,08924.69723,W,002.95,086.4,260516,001.8,W,A*33
$GPRMC,014535.4,A,4304.32680,N,08924.69675,W,002.83,086.3,260516,001.8,W,A*3C
$GPRMC,014535.8,A,4304.32682,N,08924.69622,W,003.18,081.8,260516,001.8,W,A*3F
$GPRMC,014536.2,A,4304.32686,N,08924.69568,W,003.14,078.1,260516,001.8,W,A*3C
$GPRMC,014536.6,A,4304.32695,N,08924.69523,W,003.08,082.4,260516,001.8,W,A*38
$GPRMC,014537.0,A,4304.32701,N,08924.69477,W,002.96,079.8,260516,001.8,W,A*3D
$GPRMC,014537.4,A,4304.32706,N,08924.69428,W,002.84,086.0,260516,001.8,W,A*3F
$GPRMC,014537.8,A,4304.32711,N,08924.69383,W,003.01,082.6,260516,001.8,W,A*3D
$GPRMC,014538.2,A,4304.32721,N,08924.69338,W,003.02,074.4,260516,001.8,W,A*33
$GPRMC,014538.6,A,4304.32733,N,08924.69293,W,003.06,070.8,260516,001.8,W,A*38
$GPRMC,014539.0,A,4304.32752,N,08924.69245,W,003.26,056.6,260516,001.8,W,A*3B
$GPRMC,014539.4,A,4304.32770,N,08924.69199,W,003.13,057.0,260516,001.8,W,A*3C
$GPRMC,014539.8,A,4304.32789,N,08924.69157,W,003.10,055.7,260516,001.8,W,A*32
$GPRMC,014540.2,A,4304.32813,N,08924.69118,W,003.41,054.2,260516,001.8,W,A*31
$GPRMC,014540.6,A,4304.32830,N,08924.69077,W,003.44,055.2,260516,001.8,W,A*38
$GPRMC,014541.0,A,4304.32849,N,08924.69041,W,003.15,051.4,260516,001.8,W,A*32
$GPRMC,014541.4,A,4304.32871,N,08924.68998,W,003.07,051.2,260516,001.8,W,A*34
$GPRMC,014541.8,A,4304.32890,N,08924.68965,W,003.20,052.3,260516,001.8,W,A*32
$GPRMC,014542.2,A,4304.32912,N,08924.68930,W,003.11,048.8,260516,001.8,W,A*32
$GPRMC,014542.6,A,4304.32936,N,08924.68897,W,003.41,047.0,260516,001.8,W,A*3E
$GPRMC,014543.0,A,4304.32958,N,08924.68862,W,002.85,050.4,260516,001.8,W,A*30
$GPRMC,014543.4,A,4304.32981,N,08924.68829,W,003.08,045.9,260516,001.8,W,A*32
$GPRMC,014543.8,A,4304.33014,N,08924.68803,W,003.00,041.9,260516,001.8,W,A*3E
$GPRMC,014544.2,A,4304.33042,N,08924.68779,W,003.04,039.4,260516,001.8,W,A*34
$GPRMC,014544.6,A,4304.33064,N,08924.68749,W,003.06,043.7,260516,001.8,W,A*3B
$GPRMC,014545.0,A,4304.33087,N,08924.68721,W,002.88,045.5,260516,001.8,W,A*3C
$GPRMC,014545.4,A,4304.33115,N,08924.68688,W,002.87,046.5,260516,001.8,W,A*3C
$GPRMC,014545.8,A,4304.33139,N,08924.68654,W,002.88,049.8,260516,001.8,W,A*32
$GPRMC,014546.2,A,4304.33158,N,08924.68615,W,002.91,045.8,260516,001.8,W,A*3D
$GPRMC,014546.6,A,4304.33189,N,08924.68581,W,003.11,043.6,260516,001.8,W,A*3A
$GPRMC,014547.0,A,4304.33213,N,08924.68541,W,002.97,049.0,260516,001.8,W,A*32
$GPRMC,014547.4,A,4304.33236,N,08924.68498,W,003.17,048.8,260516,001.8,W,A*34
$GPRMC,014547.8,A,4304.33257,N,08924.68460,W,003.03,053.1,260516,001.8,W,A*3E
$GPRMC,014548.2,A,4304.33277,N,08924.68423,W,003.09,051.2,260516,001.8,W,A*35
$GPRMC,014548.6,A,4304.33297,N,08924.68386,W,003.12,051.0,260516,001.8,W,A*3F
$GPRMC,014549.0,A,4304.33322,N,08924.68341,W,003.18,055.8,260516,001.8,W,A*3A
$GPRMC,014549.4,A,4304.33342,N,08924.68296,W,002.96,054.9,260516,001.8,W,A*34
$GPRMC,014549.8,A,4304.33362,N,08924.68255,W,003.23,055.7,260516,001.8,W,A*35
$GPRMC,014550.2,A,4304.33384,N,08924.68208,W,003.47,052.6,260516,001.8,W,A*33
$GPRMC,014550.6,A,4304.33407,N,08924.68166,W,003.09,063.7,260516,001.8,W,A*39
$GPRMC,014551.0,A,4304.33423,N,08924.68125,W,003.05,067.2,260516,001.8,W,A*32
$GPRMC,014551.4,A,4304.33436,N,08924.68081,W,003.26,060.5,260516,001.8,W,A*3C
$GPRMC,014551.8,A,4304.33460,N,08924.68034,W,003.26,061.9,260516,001.8,W,A*30
$GPRMC,014552.2,A,4304.33499,N,08924.67978,W,003.44,068.9,260516,001.8,W,A*3C
$GPRMC,014552.6,A,4304.33532,N,08924.67933,W,002.91,066.3,260516,001.8,W,A*3A
$GPRMC,014553.0,A,4304.33561,N,08924.67885,W,003.21,062.4,260516,001.8,W,A*3E
$GPRMC,014553.4,A,4304.33577,N,08924.67840,W,002.89,064.3,260516,001.8,W,A*36
$GPRMC,014553.8,A,4304.33590,N,08924.67803,W,002.95,066.6,260516,001.8,W,A*3E
$GPRMC,014554.2,A,4304.33607,N,08924.67758,W,003.22,073.3,260516,001.8,W,A*33
$GPRMC,014554.6,A,4304.33620,N,08924.67712,W,003.00,071.6,260516,001.8,W,A*3B
$GPRMC,014555.0,A,4304.33627,N,08924.67663,W,003.04,075.7,260516,001.8,W,A*3D
$GPRMC,014555.4,A,4304.33639,N,08924.67615,W,003.11,085.9,260516,001.8,W,A*32
$GPRMC,014555.8,A,4304.33641,N,08924.67566,W,003.13,081.2,260516,001.8,W,A*3B
$GPRMC,014556.2,A,4304.33646,N,08924.67514,W,003.25,089.6,260516,001.8,W,A*39
$GPRMC,014556.6,A,4304.33668,N,08924.67456,W,002.78,088.7,260516,001.8,W,A*3F
$GPRMC,014557.0,A,4304.33670,N,08924.67402,W,003.14,085.3,260516,001.8,W,A*32
$GPRMC,014557.4,A,4304.33676,N,08924.67351,W,002.69,084.2,260516,001.8,W,A*3A
$GPRMC,014557.8,A,4304.33676,N,08924.67300,W,003.00,087.2,260516,001.8,W,A*3F
$GPRMC,014558.2,A,4304.33678,N,08924.67246,W,003.40,087.6,260516,001.8,W,A*37
$GPRMC,014558.6,A,4304.33683,N,08924.67195,W,003.34,084.8,260516,001.8,W,A*34
$GPRMC,014559.0,A,4304.33692,N,08924.67151,W,003.21,081.1,260516,001.8,W,A*33
$GPRMC,014559.4,A,4304.33695,N,08924.67095,W,003.16,088.5,260516,001.8,W,A*30
$GPRMC,014559.8,A,4304.33695,N,08924.67043,W,003.22,091.5,260516,001.8,W,A*38
$GPRMC,014600.2,A,4304.33702,N,08924.66994,W,003.19,084.3,260516,001.8,W,A*3A
$GPRMC,014600.6,A,4304.33706,N,08924.66941,W,003.42,088.6,260516,001.8,W,A*35
$GPRMC,014601.0,A,4304.33712,N,08924.66891,W,003.34,081.8,260516,001.8,W,A*3D
$GPRMC,014601.4,A,4304.33716,N,08924.66838,W,003.04,096.2,260516,001.8,W,A*31
$GPRMC,014601.8,A,4304.33719,N,08924.66780,W,003.25,089.2,260516,001.8,W,A*33
$GPRMC,014602.2,A,4304.33722,N,08924.66732,W,003.07,085.9,260516,001.8,W,A*3C
$GPRMC,014602.6,A,4304.33726,N,08924.66682,W,003.57,081.5,260516,001.8,W,A*3B
$GPRMC,014603.0,A,4304.33728,N,08924.66628,W,003.16,082.3,260516,001.8,W,A*32
$GPRMC,014603.4,A,4304.33724,N,08924.66568,W,003.14,083.3,260516,001.8,W,A*3E
$GPRMC,014603.8,A,4304.33720,N,08924.66511,W,003.25,088.2,260516,001.8,W,A*30
$GPRMC,014604.2,A,4304.33718,N,08924.66468,W,003.19,091.5,260516,001.8,W,A*39
$GPRMC,014604.6,A,4304.33715,N,08924.66419,W,003.49,092.8,260516,001.8,W,A*3D
$GPRMC,014605.0,A,4304.33720,N,08924.66373,W,003.10,094.0,260516,001.8,W,A*35
$GPRMC,014605.4,A,4304.33720,N,08924.66324,W,002.85,090.7,260516,001.8,W,A*3D
$GPRMC,014605.8,A,4304.33725,N,08924.66284,W,002.90,090.7,260516,001.8,W,A*3B
$GPRMC,014606.2,A,4304.33723,N,08924.66242,W,003.10,098.2,260516,001.8,W,A*3A
$GPRMC,014606.6,A,4304.33728,N,08924.66200,W,003.06,091.0,260516,001.8,W,A*3F
$GPRMC,014607.0,A,4304.33727,N,08924.66157,W,003.05,086.9,260516,001.8,W,A*3A
$GPRMC,014607.4,A,4304.33724,N,08924.66103,W,003.32,087.9,260516,001.8,W,A*39
$GPRMC,014607.8,A,4304.33729,N,08924.66052,W,003.59,082.0,260516,001.8,W,A*3C
$GPRMC,014608.2,A,4304.33740,N,08924.65991,W,003.41,093.0,260516,001.8,W,A*3A
$GPRMC,014608.6,A,4304.33742,N,08924.65942,W,003.35,091.4,260516,001.8,W,A*37
$GPRMC,014609.0,A,4304.33744,N,08924.65901,W,003.06,100.2,260516,001.8,W,A*3E
$GPRMC,014609.4,A,4304.33749,N,08924.65856,W,003.28,090.5,260516,001.8,W,A*37
$GPRMC,014609.8,A,4304.33751,N,08924.65808,W,003.44,087.3,260516,001.8,W,A*33
$GPRMC,014610.2,A,4304.33746,N,08924.65758,W,003.44,086.6,260516,001.8,W,A*39
$GPRMC,014610.6,A,4304.33752,N,08924.65711,W,003.53,087.8,260516,001.8,W,A*3C
$GPRMC,014611.0,A,4304.33747,N,08924.65665,W,003.21,097.0,260516,001.8,W,A*31
$GPRMC,014611.4,A,4304.33748,N,08924.65615,W,003.34,094.7,260516,001.8,W,A*3D
$GPRMC,014611.8,A,4304.33746,N,08924.65571,W,003.35,097.4,260516,001.8,W,A*3F
$GPRMC,014612.2,A,4304.33754,N,08924.65542,W,003.29,086.4,260516,001.8,W,A*38
$GPRMC,014612.6,A,4304.33751,N,08924.65492,W,003.27,094.4,260516,001.8,W,A*38
$GPRMC,014613.0,A,4304.33751,N,08924.65431,W,003.24,092.2,260516,001.8,W,A*35
$GPRMC,014613.4,A,4304.33749,N,08924.65374,W,003.27,094.0,260516,001.8,W,A*39
$GPRMC,014613.8,A,4304.33746,N,08924.65332,W,002.93,099.2,260516,001.8,W,A*39
$GPRMC,014614.2,A,4304.33741,N,08924.65283,W,003.09,106.0,260516,001.8,W,A*3F
$GPRMC,014614.6,A,4304.33747,N,08924.65234,W,003.09,091.2,260516,001.8,W,A*3C
$GPRMC,014615.0,A,4304.33749,N,08924.65193,W,002.87,093.7,260516,001.8,W,A*3B
$GPRMC,014615.4,A,4304.33756,N,08924.65127,W,003.52,084.0,260516,001.8,W,A*36
$GPRMC,014615.8,A,4304.33765,N,08924.65079,W,003.27,077.9,260516,001.8,W,A*37
$GPRMC,014616.2,A,4304.33777,N,08924.65023,W,003.72,077.1,260516,001.8,W,A*3A
$GPRMC,014616.6,A,4304.33783,N,08924.64973,W,003.31,082.8,260516,001.8,W,A*3C
$GPRMC,014617.0,A,4304.33794,N,08924.64922,W,003.61,066.3,260516,001.8,W,A*3D
$GPRMC,014617.4,A,4304.33804,N,08924.64878,W,003.15,073.5,260516,001.8,W,A*30
$GPRMC,014617.8,A,4304.33811,N,08924.64825,W,002.86,084.0,260516,001.8,W,A*36
$GPRMC,014618.2,A,4304.33813,N,08924.64766,W,003.29,085.6,260516,001.8,W,A*3A
$GPRMC,014618.6,A,4304.33818,N,08924.64712,W,003.33,087.1,260516,001.8,W,A*38
$GPRMC,014619.0,A,4304.33819,N,08924.64656,W,003.27,092.8,260516,001.8,W,A*37
$PGRME,4.0,M,7.5,M,8.5,M*25
$GPRMC,014619.4,A,4304.33817,N,08924.64604,W,003.42,093.3,260516,001.8,W,A*33
$GPRMC,014619.8,A,4304.33818,N,08924.64544,W,003.55,088.5,260516,001.8,W,A*3D
$GPRMC,014620.2,A,4304.33813,N,08924.64487,W,003.27,087.3,260516,001.8,W,A*34
$GPRMC,014620.6,A,4304.33809,N,08924.64435,W,003.25,089.9,260516,001.8,W,A*34
$GPRMC,014621.0,A,4304.33799,N,08924.64388,W,003.16,091.4,260516,001.8,W,A*30
$GPRMC,014621.4,A,4304.33792,N,08924.64341,W,003.60,090.7,260516,001.8,W,A*39
$GPRMC,014621.8,A,4304.33786,N,08924.64297,W,003.51,093.9,260516,001.8,W,A*35
$GPRMC,014622.2,A,4304.33775,N,08924.64251,W,003.08,098.9,260516,001.8,W,A*3D
$GPRMC,014622.6,A,4304.33769,N,08924.64205,W,002.87,098.6,260516,001.8,W,A*3C
$GPRMC,014623.0,A,4304.33765,N,08924.64162,W,002.71,096.4,260516,001.8,W,A*30
$GPRMC,014623.4,A,4304.33763,N,08924.64115,W,002.78,085.2,260516,001.8,W,A*3F
$GPRMC,014623.8,A,4304.33756,N,08924.64059,W,003.00,095.1,260516,001.8,W,A*30
$GPRMC,014624.2,A,4304.33752,N,08924.64010,W,003.11,090.5,260516,001.8,W,A*35
$GPRMC,014624.6,A,4304.33740,N,08924.63965,W,003.06,095.3,260516,001.8,W,A*3B
$GPRMC,014625.0,A,4304.33735,N,08924.63916,W,003.22,092.0,260516,001.8,W,A*38
$GPRMC,014625.4,A,4304.33729,N,08924.63865,W,003.26,093.8,260516,001.8,W,A*39
$GPRMC,014625.8,A,4304.33721,N,08924.63815,W,003.30,090.7,260516,001.8,W,A*31
$GPRMC,014626.2,A,4304.33717,N,08924.63763,W,003.48,089.0,260516,001.8,W,A*33
$GPRMC,014626.6,A,4304.33711,N,08924.63708,W,003.28,090.9,260516,001.8,W,A*3B
$GPRMC,014627.0,A,4304.33704,N,08924.63654,W,003.33,092.9,260516,001.8,W,A*38
$GPRMC,014627.4,A,4304.33700,N,08924.63611,W,003.00,091.9,260516,001.8,W,A*3A
$GPRMC,014627.8,A,4304.33699,N,08924.63561,W,003.12,089.0,260516,001.8,W,A*30
$GPRMC,014628.2,A,4304.33700,N,08924.63510,W,003.17,087.1,260516,001.8,W,A*38
$GPRMC,014628.6,A,4304.33701,N,08924.63460,W,003.03,093.8,260516,001.8,W,A*32
$GPRMC,014629.0,A,4304.33698,N,08924.63417,W,003.05,086.9,260516,001.8,W,A*37
$GPRMC,014629.4,A,4304.33695,N,08924.63367,W,003.12,089.0,260516,001.8,W,A*3E
$GPRMC,014629.8,A,4304.33688,N,08924.63321,W,003.11,086.3,260516,001.8,W,A*33
$GPRMC,014630.2,A,4304.33678,N,08924.63274,W,003.31,083.9,260516,001.8,W,A*32
$GPRMC,014630.6,A,4304.33663,N,08924.63225,W,003.03,087.3,260516,001.8,W,A*37
$GPRMC,014631.0,A,4304.33655,N,08924.63175,W,003.07,087.4,260516,001.8,W,A*30
$GPRMC,014631.4,A,4304.33638,N,08924.63133,W,002.93,092.2,260516,001.8,W,A*33
$GPRMC,014631.8,A,4304.33635,N,08924.63082,W,003.15,089.8,260516,001.8,W,A*36
$GPRMC,014632.2,A,4304.33637,N,08924.63031,W,003.38,089.5,260516,001.8,W,A*37
$GPRMC,014632.6,A,4304.33638,N,08924.62981,W,003.23,090.8,260516,001.8,W,A*30
$GPRMC,014633.0,A,4304.33642,N,08924.62931,W,003.33,090.7,260516,001.8,W,A*3F
$GPRMC,014633.4,A,4304.33642,N,08924.62882,W,003.33,100.4,260516,001.8,W,A*39
$GPRMC,014633.8,A,4304.33639,N,08924.62831,W,003.00,098.6,260516,001.8,W,A*33
$GPRMC,014634.2,A,4304.33631,N,08924.62785,W,003.35,093.7,260516,001.8,W,A*3A
$GPRMC,014634.6,A,4304.33619,N,08924.62733,W,003.30,094.3,260516,001.8,W,A*3F
$GPRMC,014635.0,A,4304.33612,N,08924.62685,W,002.94,089.1,260516,001.8,W,A*3E
$GPRMC,014635.4,A,4304.33609,N,08924.62637,W,003.03,095.9,260516,001.8,W,A*33
$GPRMC,014635.8,A,4304.33604,N,08924.62580,W,002.88,093.2,260516,001.8,W,A*32
$GPRMC,014636.2,A,4304.33604,N,08924.62527,W,003.23,085.2,260516,001.8,W,A*31
$GPRMC,014636.6,A,4304.33603,N,08924.62481,W,003.31,088.0,260516,001.8,W,A*33
$GPRMC,014637.0,A,4304.33601,N,08924.62430,W,003.55,089.1,260516,001.8,W,A*3E
$GPRMC,014637.4,A,4304.33596,N,08924.62380,W,003.43,091.7,260516,001.8,W,A*33
$GPRMC,014637.8,A,4304.33595,N,08924.62331,W,003.31,091.1,260516,001.8,W,A*35
$GPRMC,014638.2,A,4304.33585,N,08924.62270,W,003.12,101.5,260516,001.8,W,A*38
$GPRMC,014638.6,A,4304.33586,N,08924.62224,W,003.18,093.1,260516,001.8,W,A*3A
$GPRMC,014639.0,A,4304.33583,N,08924.62171,W,003.43,085.0,260516,001.8,W,A*33
$GPRMC,014639.4,A,4304.33587,N,08924.62122,W,003.48,086.4,260516,001.8,W,A*39
$GPRMC,014639.8,A,4304.33591,N,08924.62076,W,003.35,086.7,260516,001.8,W,A*3B
$GPRMC,014640.2,A,4304.33598,N,08924.62038,W,002.76,092.3,260516,001.8,W,A*3B
$GPRMC,014640.6,A,4304.33602,N,08924.61996,W,002.42,090.4,260516,001.8,W,A*33
$GPRMC,014641.0,A,4304.33601,N,08924.61941,W,002.70,088.7,260516,001.8,W,A*36
$GPRMC,014641.4,A,4304.33589,N,08924.61882,W,002.68,092.3,260516,001.8,W,A*39
$GPRMC,014641.8,A,4304.33582,N,08924.61838,W,002.48,091.5,260516,001.8,W,A*38
$GPRMC,014642.2,A,4304.33580,N,08924.61795,W,002.46,096.0,260516,001.8,W,A*37
$GPRMC,014642.6,A,4304.33574,N,08924.61754,W,002.51,096.7,260516,001.8,W,A*34
$GPRMC,014643.0,A,4304.33573,N,08924.61699,W,003.35,084.6,260516,001.8,W,A*35
$GPRMC,014643.4,A,4304.33573,N,08924.61649,W,003.23,085.6,260516,001.8,W,A*3A
$GPRMC,014643.8,A,4304.33576,N,08924.61600,W,003.72,081.7,260516,001.8,W,A*3F
$GPRMC,014644.2,A,4304.33574,N,08924.61558,W,003.31,087.9,260516,001.8,W,A*31
$GPRMC,014644.6,A,4304.33568,N,08924.61517,W,003.14,093.0,260516,001.8,W,A*38
$GPRMC,014645.0,A,4304.33566,N,08924.61472,W,003.25,097.0,260516,001.8,W,A*35
$GPRMC,014645.4,A,4304.33559,N,08924.61419,W,003.08,094.6,260516,001.8,W,A*3A
$GPRMC,014645.8,A,4304.33554,N,08924.61367,W,003.14,087.6,260516,001.8,W,A*3A
$GPRMC,014646.2,A,4304.33551,N,08924.61316,W,003.31,086.5,260516,001.8,W,A*35
$GPRMC,014646.6,A,4304.33546,N,08924.61266,W,003.35,087.2,260516,001.8,W,A*33
$GPRMC,014647.0,A,4304.33546,N,08924.61217,W,003.00,091.3,260516,001.8,W,A*32
$GPRMC,014647.4,A,4304.33539,N,08924.61175,W,002.82,089.5,260516,001.8,W,A*3D
$GPRMC,014647.8,A,4304.33540,N,08924.61133,W,002.89,089.0,260516,001.8,W,A*33
$GPRMC,014648.2,A,4304.33537,N,08924.61105,W,002.47,093.7,260516,001.8,W,A*3D
$GPRMC,014648.6,A,4304.33534,N,08924.61077,W,002.47,094.1,260516,001.8,W,A*3F
$GPRMC,014649.0,A,4304.33536,N,08924.61033,W,002.97,099.3,260516,001.8,W,A*38
$GPRMC,014649.4,A,4304.33535,N,08924.60993,W,003.01,085.6,260516,001.8,W,A*3B
$GPRMC,014649.8,A,4304.33534,N,08924.60955,W,002.85,078.0,260516,001.8,W,A*35
$GPRMC,014650.2,A,4304.33526,N,08924.60916,W,002.90,088.6,260516,001.8,W,A*3E
$GPRMC,014650.6,A,4304.33525,N,08924.60872,W,003.09,092.2,260516,001.8,W,A*34
$GPRMC,014651.0,A,4304.33523,N,08924.60829,W,003.14,091.7,260516,001.8,W,A*31
$GPRMC,014651.4,A,4304.33521,N,08924.60780,W,003.09,088.6,260516,001.8,W,A*3E
$GPGSV,3,2,09,12,59,260,32,17,15,113,38,19,39,105,41,25,35,306,36*73
$GPRMC,014652.6,A,4304.33509,N,08924.60644,W,002.83,092.6,260516,001.8,W,A*34
$GPRMC,014653.0,A,4304.33509,N,08924.60598,W,002.69,088.3,260516,001.8,W,A*3B
$GPRMC,014653.4,A,4304.33509,N,08924.60556,W,002.65,087.1,260516,001.8,W,A*3C
$GPRMC,014653.8,A,4304.33499,N,08924.60521,W,002.46,095.1,260516,001.8,W,A*3A
$GPRMC,014654.2,A,4304.33493,N,08924.60486,W,002.56,100.3,260516,001.8,W,A*3F
$GPRMC,014654.6,A,4304.33485,N,08924.60451,W,002.78,099.6,260516,001.8,W,A*3E
$GPRMC,014655.0,A,4304.33477,N,08924.60412,W,002.78,100.6,260516,001.8,W,A*32
$GPRMC,014655.4,A,4304.33474,N,08924.60374,W,002.87,098.1,260516,001.8,W,A*35
$GPRMC,014655.8,A,4304.33470,N,08924.60329,W,002.91,095.6,260516,001.8,W,A*38
$GPRMC,014656.2,A,4304.33476,N,08924.60279,W,003.19,089.9,260516,001.8,W,A*30
$GPRMC,014656.6,A,4304.33477,N,08924.60221,W,003.48,083.5,260516,001.8,W,A*3A
$GPRMC,014657.0,A,4304.33477,N,08924.60166,W,003.40,083.8,260516,001.8,W,A*38
$GPRMC,014657.4,A,4304.33468,N,08924.60121,W,002.76,089.8,260516,001.8,W,A*3F
$GPRMC,014657.8,A,4304.33469,N,08924.60073,W,002.57,090.9,260516,001.8,W,A*3E
$GPRMC,014658.2,A,4304.33472,N,08924.60030,W,002.67,081.5,260516,001.8,W,A*39
$GPRMC,014658.6,A,4304.33468,N,08924.59990,W,002.49,091.6,260516,001.8,W,A*31
$GPRMC,014659.0,A,4304.33466,N,08924.59961,W,001.94,082.6,260516,001.8,W,A*37
$GPRMC,014659.4,A,4304.33452,N,08924.59940,W,001.47,111.0,260516,001.8,W,A*34
$GPRMC,014659.8,A,4304.33440,N,08924.59916,W,001.45,116.6,260516,001.8,W,A*3B
$GPRMC,014700.2,A,4304.33430,N,08924.59885,W,001.66,106.2,260516,001.8,W,A*34
$GPRMC,014700.6,A,4304.33423,N,08924.59850,W,001.82,099.5,260516,001.8,W,A*30
$GPRMC,014701.0,A,4304.33433,N,08924.59781,W,003.00,095.0,260516,001.8,W,A*34
$GPRMC,014701.4,A,4304.33433,N,08924.59739,W,002.88,091.1,260516,001.8,W,A*37
$GPRMC,014701.8,A,4304.33437,N,08924.59684,W,003.11,096.0,260516,001.8,W,A*3F
$GPRMC,014702.2,A,4304.33430,N,08924.59635,W,002.85,090.7,260516,001.8,W,A*36
$GPRMC,014702.6,A,4304.33421,N,08924.59588,W,003.20,082.0,260516,001.8,W,A*3D
$GPRMC,014703.0,A,4304.33413,N,08924.59547,W,003.03,087.5,260516,001.8,W,A*39
$GPRMC,014703.4,A,4304.33422,N,08924.59500,W,002.46,093.7,260516,001.8,W,A*3B
$GPRMC,014703.8,A,4304.33417,N,08924.59463,W,002.45,099.9,260516,001.8,W,A*32
$GPRMC,014704.2,A,4304.33424,N,08924.59404,W,002.79,092.6,260516,001.8,W,A*35
$GPRMC,014704.6,A,4304.33424,N,08924.59356,W,003.05,082.5,260516,001.8,W,A*39
$GPRMC,014705.0,A,4304.33430,N,08924.59310,W,002.88,086.3,260516,001.8,W,A*3F
$GPRMC,014705.4,A,4304.33424,N,08924.59266,W,002.98,086.0,260516,001.8,W,A*3C
$GPRMC,014705.8,A,4304.33421,N,08924.59221,W,002.77,096.6,260516,001.8,W,A*30
$GPGGA,014706.2,4304.33420,N,08924.59176,W,1,09,1.0,275.0,M,-33.4,M,,*67
$GPRMC,014707.0,A,4304.33409,N,08924.59088,W,003.00,090.2,260516,001.8,W,A*32
$GPRMC,014707.4,A,4304.33408,N,08924.59039,W,002.85,085.9,260516,001.8,W,A*3E
